{"name":"48-English-County-Tops","type":"FeatureCollection"
,"features":[
{"type":"Feature","geometry":{"type":"Point","coordinates":[0.0582655280699512,51.2895653294155]},"properties":{"Name":"Westerham Heights","County":"Greater London/Kent","OS Map 50k":"187","OS Map 25k":"147","Metres":245,"Feet":804,"Grid ref 1":"TQ436564","Grid ref 2":"TQ 43619 56504","Hillbagging":"http://www.hill-bagging.co.uk/mountaindetails.php?qu=S&rf=5503","Xcoord":543619,"Ycoord":156498,"Latitude":51.28951,"Longitude":0.05826}}
,{"type":"Feature","geometry":{"type":"Point","coordinates":[-2.47853288909466,54.2086115340158]},"properties":{"Name":"Gragareth","County":"Lancashire","OS Map 50k":"98","OS Map 25k":"OL2W","Metres":628,"Feet":2060,"Grid ref 1":"SD688793","Grid ref 2":"SD 68887 79312","Hillbagging":"http://www.hill-bagging.co.uk/mountaindetails.php?qu=S&rf=2793","Xcoord":368886,"Ycoord":479312,"Latitude":54.20861,"Longitude":-2.47854}}
,{"type":"Feature","geometry":{"type":"Point","coordinates":[-2.00931284805082,53.2607136965789]},"properties":{"Name":"Shining Tor","County":"Cheshire East/Derbyshire","OS Map 50k":"118","OS Map 25k":"OL24W","Metres":559,"Feet":1834,"Grid ref 1":"SJ994737","Grid ref 2":"SJ 99476 73744","Hillbagging":"http://www.hill-bagging.co.uk/mountaindetails.php?qu=S&rf=2812","Xcoord":399475,"Ycoord":373741,"Latitude":53.26068,"Longitude":-2.00932}}
,{"type":"Feature","geometry":{"type":"Point","coordinates":[-2.71677931250999,53.5074380990469]},"properties":{"Name":"Billinge Hill","County":"St Helens","OS Map 50k":"108","OS Map 25k":"285E","Metres":179,"Feet":587,"Grid ref 1":"SD525014","Grid ref 2":"SD 52559 01432","Hillbagging":"http://www.hill-bagging.co.uk/mountaindetails.php?qu=S&rf=2829","Xcoord":352558,"Ycoord":401430,"Latitude":53.50742,"Longitude":-2.7168}}
,{"type":"Feature","geometry":{"type":"Point","coordinates":[-1.71856677942789,53.4456294697676]},"properties":{"Name":"High Stones","County":"Sheffield","OS Map 50k":"110","OS Map 25k":"OL1E","Metres":550,"Feet":1804,"Grid ref 1":"SK187943","Grid ref 2":"SK 18790 94353","Hillbagging":"http://www.hill-bagging.co.uk/mountaindetails.php?qu=S&rf=3630","Xcoord":418790,"Ycoord":394350,"Latitude":53.4456,"Longitude":-1.71857}}
,{"type":"Feature","geometry":{"type":"Point","coordinates":[-1.91683747990454,53.5143518006061]},"properties":{"Name":"Black Chew Head","County":"Derbyshire/Oldham","OS Map 50k":"110","OS Map 25k":"OL1W","Metres":542,"Feet":1778,"Grid ref 1":"SE056019","Grid ref 2":"SE 05612 01965","Hillbagging":"http://www.hill-bagging.co.uk/mountaindetails.php?qu=S&rf=3636","Xcoord":405612,"Ycoord":401962,"Latitude":53.51433,"Longitude":-1.91684}}
,{"type":"Feature","geometry":{"type":"Point","coordinates":[-1.83535154580206,54.9288371968736]},"properties":{"Name":"Currock Hill East Top","County":"Gateshead","OS Map 50k":"88","OS Map 25k":"307","Metres":259,"Feet":848,"Grid ref 1":"NZ106593","Grid ref 2":"NZ 10650 59362","Hillbagging":"http://www.hill-bagging.co.uk/mountaindetails.php?qu=S&rf=5306","Xcoord":410651,"Ycoord":559364,"Latitude":54.92885,"Longitude":-1.83533}}
,{"type":"Feature","geometry":{"type":"Point","coordinates":[-1.56702203038397,51.575560003657]},"properties":{"Name":"Whitehorse Hill","County":"Oxfordshire","OS Map 50k":"174","OS Map 25k":"170W","Metres":261,"Feet":856,"Grid ref 1":"SU300863","Grid ref 2":"SU 30101 86388","Hillbagging":"http://www.hill-bagging.co.uk/mountaindetails.php?qu=S&rf=5479","Xcoord":430099,"Ycoord":186382,"Latitude":51.57551,"Longitude":-1.56704}}
,{"type":"Feature","geometry":{"type":"Point","coordinates":[-2.04938266612181,52.4963830885109]},"properties":{"Name":"Turner's Hill","County":"Sandwell","OS Map 50k":"139","OS Map 25k":"219N 219S","Metres":271,"Feet":889,"Grid ref 1":"SO967887","Grid ref 2":"SO 96744 88719","Hillbagging":"http://www.hill-bagging.co.uk/mountaindetails.php?qu=S&rf=5481","Xcoord":396743,"Ycoord":288714,"Latitude":52.49634,"Longitude":-2.0494}}
,{"type":"Feature","geometry":{"type":"Point","coordinates":[-2.58525634539969,51.3994777488526]},"properties":{"Name":"Dundry Hill East","County":"Bath and NE Somerset/Bristol","OS Map 50k":"172 182","OS Map 25k":"154 155","Metres":160,"Feet":525,"Grid ref 1":"ST593668","Grid ref 2":"ST 59382 66879","Hillbagging":"http://www.hill-bagging.co.uk/mountaindetails.php?qu=S&rf=5491","Xcoord":359380,"Ycoord":166874,"Latitude":51.39943,"Longitude":-2.58528}}
,{"type":"Feature","geometry":{"type":"Point","coordinates":[-0.113720218817974,51.5182362218123]},"properties":{"Name":"High Holborn","County":"Greater London","OS Map 50k":"176 177","OS Map 25k":"173","Metres":22,"Feet":72,"Grid ref 1":"TQ309816","Grid ref 2":"TQ 30973 81610","Hillbagging":"http://www.hill-bagging.co.uk/mountaindetails.php?qu=S&rf=5571","Xcoord":530973,"Ycoord":181604,"Latitude":51.51818,"Longitude":-0.11373}}
,{"type":"Feature","geometry":{"type":"Point","coordinates":[-3.08588345424148,52.008634312422]},"properties":{"Name":"Black Mountain","County":"Herefordshire/Powys","OS Map 50k":"161","OS Map 25k":"OL13N","Metres":703,"Feet":2306,"Grid ref 1":"SO255350","Grid ref 2":"SO 25564 35023","Hillbagging":"http://www.hill-bagging.co.uk/mountaindetails.php?qu=S&rf=2242","Xcoord":325562,"Ycoord":235018,"Latitude":52.00859,"Longitude":-3.08591}}
,{"type":"Feature","geometry":{"type":"Point","coordinates":[-2.14545517691454,55.4784385162522]},"properties":{"Name":"The Cheviot","County":"Northumberland","OS Map 50k":"74 75","OS Map 25k":"OL16E","Metres":815,"Feet":2674,"Grid ref 1":"NT909205","Grid ref 2":"NT 90905 20523","Hillbagging":"http://www.hill-bagging.co.uk/mountaindetails.php?qu=S&rf=2302","Xcoord":390906,"Ycoord":620527,"Latitude":55.47847,"Longitude":-2.14544}}
,{"type":"Feature","geometry":{"type":"Point","coordinates":[-3.21166023050498,54.4542572034479]},"properties":{"Name":"Scafell Pike","County":"Cumbria","OS Map 50k":"89 90","OS Map 25k":"OL6N","Metres":978,"Feet":3209,"Grid ref 1":"NY215072","Grid ref 2":"NY 21541 07216","Hillbagging":"http://www.hill-bagging.co.uk/mountaindetails.php?qu=S&rf=2359","Xcoord":321540,"Ycoord":507217,"Latitude":54.45426,"Longitude":-3.21168}}
,{"type":"Feature","geometry":{"type":"Point","coordinates":[-2.30186061847329,54.6157074637316]},"properties":{"Name":"Mickle Fell","County":"Durham","OS Map 50k":"91 92","OS Map 25k":"OL19N","Metres":790,"Feet":2592,"Grid ref 1":"NY806245","Grid ref 2":"NY 80604 24547","Hillbagging":"http://www.hill-bagging.co.uk/mountaindetails.php?qu=S&rf=2711","Xcoord":380604,"Ycoord":524548,"Latitude":54.61572,"Longitude":-2.30186}}
,{"type":"Feature","geometry":{"type":"Point","coordinates":[-2.40338023516262,54.2276522942041]},"properties":{"Name":"Whernside","County":"Cumbria/North Yorkshire","OS Map 50k":"98","OS Map 25k":"OL2W","Metres":736,"Feet":2415,"Grid ref 1":"SD738814","Grid ref 2":"SD 73801 81403","Hillbagging":"http://www.hill-bagging.co.uk/mountaindetails.php?qu=S&rf=2779","Xcoord":373800,"Ycoord":481400,"Latitude":54.22765,"Longitude":-2.40339}}
,{"type":"Feature","geometry":{"type":"Point","coordinates":[-1.87390425337244,53.384834994402]},"properties":{"Name":"Kinder Scout","County":"Derbyshire","OS Map 50k":"110","OS Map 25k":"OL1W","Metres":636,"Feet":2088,"Grid ref 1":"SK084875","Grid ref 2":"SK 08484 87560","Hillbagging":"http://www.hill-bagging.co.uk/mountaindetails.php?qu=S&rf=2807","Xcoord":408484,"Ycoord":387557,"Latitude":53.38481,"Longitude":-1.87391}}
,{"type":"Feature","geometry":{"type":"Point","coordinates":[-1.88531682004841,53.5380275638762]},"properties":{"Name":"Black Hill","County":"Derbyshire/Kirklees","OS Map 50k":"110","OS Map 25k":"OL1W","Metres":582,"Feet":1909,"Grid ref 1":"SE076045","Grid ref 2":"SE 07698 04602","Hillbagging":"http://www.hill-bagging.co.uk/mountaindetails.php?qu=S&rf=2810","Xcoord":407698,"Ycoord":404599,"Latitude":53.538,"Longitude":-1.88532}}
,{"type":"Feature","geometry":{"type":"Point","coordinates":[-0.747730838835554,54.0027506192303]},"properties":{"Name":"Bishop Wilton Wold","County":"Yorkshire E Riding","OS Map 50k":"106","OS Map 25k":"294","Metres":248,"Feet":814,"Grid ref 1":"SE821570","Grid ref 2":"SE 82179 57026","Hillbagging":"http://www.hill-bagging.co.uk/mountaindetails.php?qu=S&rf=2833","Xcoord":482181,"Ycoord":457024,"Latitude":54.00273,"Longitude":-0.7477}}
,{"type":"Feature","geometry":{"type":"Point","coordinates":[-0.313191652501922,53.4531002399814]},"properties":{"Name":"Normanby Le Wold Top","County":"Lincolnshire","OS Map 50k":"113","OS Map 25k":"282 284","Metres":168,"Feet":551,"Grid ref 1":"TF121964","Grid ref 2":"TF 12110 96471","Hillbagging":"http://www.hill-bagging.co.uk/mountaindetails.php?qu=S&rf=2836","Xcoord":512112,"Ycoord":396467,"Latitude":53.45306,"Longitude":-0.31316}}
,{"type":"Feature","geometry":{"type":"Point","coordinates":[-2.59955176363208,52.4767755115857]},"properties":{"Name":"Brown Clee Hill","County":"Shropshire","OS Map 50k":"137 138","OS Map 25k":"217","Metres":540,"Feet":1772,"Grid ref 1":"SO593867","Grid ref 2":"SO 59375 86706","Hillbagging":"http://www.hill-bagging.co.uk/mountaindetails.php?qu=S&rf=2837","Xcoord":359373,"Ycoord":286701,"Latitude":52.47673,"Longitude":-2.59958}}
,{"type":"Feature","geometry":{"type":"Point","coordinates":[-2.33892536290597,52.1049867586377]},"properties":{"Name":"Worcestershire Beacon","County":"Worcestershire","OS Map 50k":"150","OS Map 25k":"190","Metres":425,"Feet":1394,"Grid ref 1":"SO768452","Grid ref 2":"SO 76883 45237","Hillbagging":"http://www.hill-bagging.co.uk/mountaindetails.php?qu=S&rf=2854","Xcoord":376881,"Ycoord":245232,"Latitude":52.10494,"Longitude":-2.33895}}
,{"type":"Feature","geometry":{"type":"Point","coordinates":[-2.00587792175075,51.9199502633904]},"properties":{"Name":"Cleeve Hill","County":"Gloucestershire","OS Map 50k":"163","OS Map 25k":"179","Metres":330,"Feet":1083,"Grid ref 1":"SO996245","Grid ref 2":"SO 99692 24602","Hillbagging":"http://www.hill-bagging.co.uk/mountaindetails.php?qu=S&rf=2869","Xcoord":399690,"Ycoord":224597,"Latitude":51.9199,"Longitude":-2.0059}}
,{"type":"Feature","geometry":{"type":"Point","coordinates":[-1.85156620350901,51.3777816566132]},"properties":{"Name":"Milk Hill","County":"Wiltshire","OS Map 50k":"173","OS Map 25k":"157","Metres":294,"Feet":966,"Grid ref 1":"SU104643","Grid ref 2":"SU 10427 64314","Hillbagging":"http://www.hill-bagging.co.uk/mountaindetails.php?qu=S&rf=2872","Xcoord":410425,"Ycoord":164308,"Latitude":51.37773,"Longitude":-1.85159}}
,{"type":"Feature","geometry":{"type":"Point","coordinates":[-1.32057838918533,52.7145212188077]},"properties":{"Name":"Bardon Hill","County":"Leicestershire","OS Map 50k":"129","OS Map 25k":"245E","Metres":278,"Feet":912,"Grid ref 1":"SK459131","Grid ref 2":"SK 45994 13199","Hillbagging":"http://www.hill-bagging.co.uk/mountaindetails.php?qu=S&rf=2873","Xcoord":445994,"Ycoord":313194,"Latitude":52.71448,"Longitude":-1.32058}}
,{"type":"Feature","geometry":{"type":"Point","coordinates":[-0.710428228539229,51.7733846165995]},"properties":{"Name":"Haddington Hill","County":"Buckinghamshire","OS Map 50k":"165","OS Map 25k":"181","Metres":267,"Feet":876,"Grid ref 1":"SP890090","Grid ref 2":"SP 89072 09087","Hillbagging":"http://www.hill-bagging.co.uk/mountaindetails.php?qu=S&rf=2874","Xcoord":489071,"Ycoord":209081,"Latitude":51.77333,"Longitude":-0.71044}}
,{"type":"Feature","geometry":{"type":"Point","coordinates":[-4.01112609027797,50.6852573596371]},"properties":{"Name":"High Willhays","County":"Devon","OS Map 50k":"191","OS Map 25k":"OL28N","Metres":621,"Feet":2037,"Grid ref 1":"SX580892","Grid ref 2":"SX 58027 89220","Hillbagging":"http://www.hill-bagging.co.uk/mountaindetails.php?qu=S&rf=2877","Xcoord":258024,"Ycoord":89214,"Latitude":50.6852,"Longitude":-4.01116}}
,{"type":"Feature","geometry":{"type":"Point","coordinates":[-4.6026997810221,50.5906464748158]},"properties":{"Name":"Brown Willy","County":"Cornwall","OS Map 50k":"201","OS Map 25k":"109","Metres":420,"Feet":1378,"Grid ref 1":"SX158799","Grid ref 2":"SX 15873 80004","Hillbagging":"http://www.hill-bagging.co.uk/mountaindetails.php?qu=S&rf=2881","Xcoord":215870,"Ycoord":79998,"Latitude":50.59059,"Longitude":-4.60274}}
,{"type":"Feature","geometry":{"type":"Point","coordinates":[-3.58669075249703,51.162836358899]},"properties":{"Name":"Dunkery Beacon","County":"Somerset","OS Map 50k":"181","OS Map 25k":"OL9E","Metres":519,"Feet":1703,"Grid ref 1":"SS891415","Grid ref 2":"SS 89150 41596","Hillbagging":"http://www.hill-bagging.co.uk/mountaindetails.php?qu=S&rf=2889","Xcoord":289147,"Ycoord":141590,"Latitude":51.16278,"Longitude":-3.58673}}
,{"type":"Feature","geometry":{"type":"Point","coordinates":[-2.7993100226174,50.8073688371861]},"properties":{"Name":"Lewesdon Hill","County":"Dorset","OS Map 50k":"193","OS Map 25k":"116","Metres":279,"Feet":915,"Grid ref 1":"ST437011","Grid ref 2":"ST 43776 01174","Hillbagging":"http://www.hill-bagging.co.uk/mountaindetails.php?qu=S&rf=2896","Xcoord":343773,"Ycoord":101168,"Latitude":50.80732,"Longitude":-2.79935}}
,{"type":"Feature","geometry":{"type":"Point","coordinates":[-1.46505702786614,51.3525402760149]},"properties":{"Name":"Walbury Hill","County":"West Berkshire","OS Map 50k":"174","OS Map 25k":"158","Metres":297,"Feet":974,"Grid ref 1":"SU373616","Grid ref 2":"SU 37348 61632","Hillbagging":"http://www.hill-bagging.co.uk/mountaindetails.php?qu=S&rf=2906","Xcoord":437346,"Ycoord":161626,"Latitude":51.35249,"Longitude":-1.46508}}
,{"type":"Feature","geometry":{"type":"Point","coordinates":[-0.371424717494772,51.1765551078221]},"properties":{"Name":"Leith Hill","County":"Surrey","OS Map 50k":"187","OS Map 25k":"146","Metres":295,"Feet":968,"Grid ref 1":"TQ139431","Grid ref 2":"TQ 13937 43185","Hillbagging":"http://www.hill-bagging.co.uk/mountaindetails.php?qu=S&rf=2907","Xcoord":513936,"Ycoord":143179,"Latitude":51.1765,"Longitude":-0.37144}}
,{"type":"Feature","geometry":{"type":"Point","coordinates":[-0.689346607945158,51.0586896564433]},"properties":{"Name":"Black Down","County":"West Sussex","OS Map 50k":"186 197","OS Map 25k":"OL33 133","Metres":280,"Feet":919,"Grid ref 1":"SU919296","Grid ref 2":"SU 91948 29634","Hillbagging":"http://www.hill-bagging.co.uk/mountaindetails.php?qu=S&rf=2908","Xcoord":491947,"Ycoord":129628,"Latitude":51.05863,"Longitude":-0.68936}}
,{"type":"Feature","geometry":{"type":"Point","coordinates":[-0.107620967107015,50.9017988494184]},"properties":{"Name":"Ditchling Beacon","County":"East Sussex","OS Map 50k":"198","OS Map 25k":"OL11 122","Metres":248,"Feet":814,"Grid ref 1":"TQ331130","Grid ref 2":"TQ 33161 13075","Hillbagging":"http://www.hill-bagging.co.uk/mountaindetails.php?qu=S&rf=2912","Xcoord":533160,"Ycoord":113068,"Latitude":50.90174,"Longitude":-0.10763}}
,{"type":"Feature","geometry":{"type":"Point","coordinates":[-1.19757540018285,50.6036246572899]},"properties":{"Name":"St Boniface Down","County":"Isle of Wight","OS Map 50k":"196","OS Map 25k":"OL29E","Metres":242,"Feet":794,"Grid ref 1":"SZ568785","Grid ref 2":"SZ 56881 78520","Hillbagging":"http://www.hill-bagging.co.uk/mountaindetails.php?qu=S&rf=2914","Xcoord":456880,"Ycoord":78513,"Latitude":50.60357,"Longitude":-1.19759}}
,{"type":"Feature","geometry":{"type":"Point","coordinates":[-1.7273361312488,52.0817598505029]},"properties":{"Name":"Ebrington Hill","County":"Warwickshire","OS Map 50k":"151","OS Map 25k":"205","Metres":261,"Feet":856,"Grid ref 1":"SP187426","Grid ref 2":"SP 18781 42634","Hillbagging":"http://www.hill-bagging.co.uk/mountaindetails.php?qu=S&rf=5384","Xcoord":418780,"Ycoord":242628,"Latitude":52.08171,"Longitude":-1.72736}}
,{"type":"Feature","geometry":{"type":"Point","coordinates":[-0.536324036249697,51.8642952805989]},"properties":{"Name":"Dunstable Downs","County":"Central Bedfordshire","OS Map 50k":"166","OS Map 25k":"181 182","Metres":243,"Feet":797,"Grid ref 1":"TL008194","Grid ref 2":"TL 00881 19424","Hillbagging":"http://www.hill-bagging.co.uk/mountaindetails.php?qu=S&rf=5389","Xcoord":500880,"Ycoord":219418,"Latitude":51.86424,"Longitude":-0.53634}}
,{"type":"Feature","geometry":{"type":"Point","coordinates":[-1.21073467522742,52.2245819737063]},"properties":{"Name":"Arbury Hill","County":"Northamptonshire","OS Map 50k":"152","OS Map 25k":"206","Metres":225,"Feet":738,"Grid ref 1":"SP540587","Grid ref 2":"SP 54009 58778","Hillbagging":"http://www.hill-bagging.co.uk/mountaindetails.php?qu=S&rf=5393","Xcoord":454008,"Ycoord":258772,"Latitude":52.22453,"Longitude":-1.21075}}
,{"type":"Feature","geometry":{"type":"Point","coordinates":[0.0790298490610655,52.0276986164747]},"properties":{"Name":"Great Chishill","County":"Cambridgeshire","OS Map 50k":"154","OS Map 25k":"194","Metres":146,"Feet":479,"Grid ref 1":"TL427386","Grid ref 2":"TL 42730 38626","Hillbagging":"http://www.hill-bagging.co.uk/mountaindetails.php?qu=S&rf=5456","Xcoord":542730,"Ycoord":238620,"Latitude":52.02764,"Longitude":0.07903}}
,{"type":"Feature","geometry":{"type":"Point","coordinates":[0.100933641927321,52.0055128938999]},"properties":{"Name":"Chrishall Common","County":"Essex","OS Map 50k":"154","OS Map 25k":"194","Metres":147,"Feet":482,"Grid ref 1":"TL443361","Grid ref 2":"TL 44304 36202","Hillbagging":"http://www.hill-bagging.co.uk/mountaindetails.php?qu=S&rf=5460","Xcoord":544304,"Ycoord":236196,"Latitude":52.00546,"Longitude":0.10093}}
,{"type":"Feature","geometry":{"type":"Point","coordinates":[-1.43002312825831,51.3394088598524]},"properties":{"Name":"Pilot Hill","County":"Hampshire","OS Map 50k":"174","OS Map 25k":"158","Metres":286,"Feet":938,"Grid ref 1":"SU397601","Grid ref 2":"SU 39799 60190","Hillbagging":"http://www.hill-bagging.co.uk/mountaindetails.php?qu=S&rf=5461","Xcoord":439797,"Ycoord":160184,"Latitude":51.33936,"Longitude":-1.43005}}
,{"type":"Feature","geometry":{"type":"Point","coordinates":[-0.676195239036951,51.7733468255103]},"properties":{"Name":"Pavis Wood","County":"Buckinghamshire/Hertfordshire","OS Map 50k":"165","OS Map 25k":"181","Metres":244,"Feet":801,"Grid ref 1":"SP914091","Grid ref 2":"SP 91434 09125","Hillbagging":"http://www.hill-bagging.co.uk/mountaindetails.php?qu=S&rf=5462","Xcoord":491433,"Ycoord":209119,"Latitude":51.77329,"Longitude":-0.67621}}
,{"type":"Feature","geometry":{"type":"Point","coordinates":[0.0572585089561844,51.2885313094152]},"properties":{"Name":"Betsom's Hill","County":"Kent","OS Map 50k":"187","OS Map 25k":"147","Metres":251,"Feet":823,"Grid ref 1":"TQ435563","Grid ref 2":"TQ 43552 56387","Hillbagging":"http://www.hill-bagging.co.uk/mountaindetails.php?qu=S&rf=5464","Xcoord":543552,"Ycoord":156381,"Latitude":51.28847,"Longitude":0.05725}}
,{"type":"Feature","geometry":{"type":"Point","coordinates":[1.24704698889571,52.9259226142274]},"properties":{"Name":"Beacon Hill","County":"Norfolk","OS Map 50k":"133","OS Map 25k":"252","Metres":104,"Feet":344,"Grid ref 1":"TG183414","Grid ref 2":"TG 18354 41434","Hillbagging":"http://www.hill-bagging.co.uk/mountaindetails.php?qu=S&rf=5468","Xcoord":618357,"Ycoord":341428,"Latitude":52.92587,"Longitude":1.24708}}
,{"type":"Feature","geometry":{"type":"Point","coordinates":[-1.31950343992815,53.1410381154195]},"properties":{"Name":"Newtonwood Lane","County":"Derbyshire/Nottinghamshire","OS Map 50k":"120","OS Map 25k":"269","Metres":205,"Feet":673,"Grid ref 1":"SK456606","Grid ref 2":"SK 45618 60646","Hillbagging":"http://www.hill-bagging.co.uk/mountaindetails.php?qu=S&rf=5470","Xcoord":445618,"Ycoord":360642,"Latitude":53.141,"Longitude":-1.3195}}
,{"type":"Feature","geometry":{"type":"Point","coordinates":[-0.778360760500106,52.6682193925735]},"properties":{"Name":"Cold Overton Park","County":"Rutland","OS Map 50k":"141","OS Map 25k":"234","Metres":197,"Feet":646,"Grid ref 1":"SK827085","Grid ref 2":"SK 82709 08532","Hillbagging":"http://www.hill-bagging.co.uk/mountaindetails.php?qu=S&rf=5471","Xcoord":482709,"Ycoord":308527,"Latitude":52.66817,"Longitude":-0.77836}}
,{"type":"Feature","geometry":{"type":"Point","coordinates":[-1.96236054391033,53.2262106411614]},"properties":{"Name":"Cheeks Hill","County":"Derbyshire/Staffordshire","OS Map 50k":"119","OS Map 25k":"OL24W","Metres":520,"Feet":1706,"Grid ref 1":"SK026699","Grid ref 2":"SK 02610 69906","Hillbagging":"http://www.hill-bagging.co.uk/mountaindetails.php?qu=S&rf=5472","Xcoord":402609,"Ycoord":369903,"Latitude":53.22618,"Longitude":-1.96237}}
,{"type":"Feature","geometry":{"type":"Point","coordinates":[0.608918287060344,52.1725554349866]},"properties":{"Name":"Great Wood Hill","County":"Suffolk","OS Map 50k":"155","OS Map 25k":"210","Metres":128,"Feet":420,"Grid ref 1":"TL785559","Grid ref 2":"TL 78490 55906","Hillbagging":"http://www.hill-bagging.co.uk/mountaindetails.php?qu=S&rf=5474","Xcoord":578500,"Ycoord":255900,"Latitude":52.1725,"Longitude":0.60893}}
]}
